[
  {
    "_key": "e4e302475120_location1",
    "name": "NetWork Industries - New York Data Center",
    "streetAddress": "123 Broadway, New York, NY",
    "geoLocation": {
      "type": "Point",
      "coordinates": [
        -74.006,
        40.7128
      ]
    },
    "created": 1757965624.467901,
    "expired": 9223372036854775807,
    "tenant_e4e302475120_attr": "e4e302475120"
  },
  {
    "_key": "e4e302475120_location2",
    "name": "NetWork Industries - London Office",
    "streetAddress": "456 Oxford St, London",
    "geoLocation": {
      "type": "Point",
      "coordinates": [
        -0.1278,
        51.5074
      ]
    },
    "created": 1757965624.467906,
    "expired": 9223372036854775807,
    "tenant_e4e302475120_attr": "e4e302475120"
  },
  {
    "_key": "e4e302475120_location3",
    "name": "NetWork Industries - Tokyo HQ",
    "streetAddress": "789 Ginza, Tokyo",
    "geoLocation": {
      "type": "Point",
      "coordinates": [
        139.6917,
        35.6895
      ]
    },
    "created": 1757965624.467909,
    "expired": 9223372036854775807,
    "tenant_e4e302475120_attr": "e4e302475120"
  },
  {
    "_key": "e4e302475120_location4",
    "name": "NetWork Industries - Sydney Warehouse",
    "streetAddress": "101 George St, Sydney",
    "geoLocation": {
      "type": "Point",
      "coordinates": [
        151.2093,
        -33.8688
      ]
    },
    "created": 1757965624.467912,
    "expired": 9223372036854775807,
    "tenant_e4e302475120_attr": "e4e302475120"
  },
  {
    "_key": "e4e302475120_location5",
    "name": "NetWork Industries - Frankfurt Cloud Region",
    "streetAddress": "222 Mainzer Landstr, Frankfurt",
    "geoLocation": {
      "type": "Point",
      "coordinates": [
        8.6821,
        50.1109
      ]
    },
    "created": 1757965624.467914,
    "expired": 9223372036854775807,
    "tenant_e4e302475120_attr": "e4e302475120"
  },
  {
    "_key": "e4e302475120_location6",
    "name": "NetWork Industries - Singapore Hub",
    "streetAddress": "Marina Bay, Singapore",
    "geoLocation": {
      "type": "Point",
      "coordinates": [
        103.8764,
        1.2966
      ]
    },
    "created": 1757965624.467917,
    "expired": 9223372036854775807,
    "tenant_e4e302475120_attr": "e4e302475120"
  },
  {
    "_key": "e4e302475120_location7",
    "name": "NetWork Industries - Toronto Branch",
    "streetAddress": "Bay St, Toronto",
    "geoLocation": {
      "type": "Point",
      "coordinates": [
        -79.3832,
        43.6532
      ]
    },
    "created": 1757965624.467919,
    "expired": 9223372036854775807,
    "tenant_e4e302475120_attr": "e4e302475120"
  },
  {
    "_key": "e4e302475120_location8",
    "name": "NetWork Industries - Mumbai Center",
    "streetAddress": "Nariman Point, Mumbai",
    "geoLocation": {
      "type": "Point",
      "coordinates": [
        72.8347,
        18.922
      ]
    },
    "created": 1757965624.467922,
    "expired": 9223372036854775807,
    "tenant_e4e302475120_attr": "e4e302475120"
  },
  {
    "_key": "e4e302475120_location9",
    "name": "NetWork Industries - S\u00e3o Paulo Office",
    "streetAddress": "Av. Paulista, S\u00e3o Paulo",
    "geoLocation": {
      "type": "Point",
      "coordinates": [
        -46.6333,
        -23.5505
      ]
    },
    "created": 1757965624.467924,
    "expired": 9223372036854775807,
    "tenant_e4e302475120_attr": "e4e302475120"
  },
  {
    "_key": "e4e302475120_location10",
    "name": "NetWork Industries - Cape Town Hub",
    "streetAddress": "V&A Waterfront, Cape Town",
    "geoLocation": {
      "type": "Point",
      "coordinates": [
        18.4167,
        -33.9025
      ]
    },
    "created": 1757965624.467927,
    "expired": 9223372036854775807,
    "tenant_e4e302475120_attr": "e4e302475120"
  },
  {
    "_key": "e4e302475120_location11",
    "name": "NetWork Industries - New York Data Center",
    "streetAddress": "123 Broadway, New York, NY",
    "geoLocation": {
      "type": "Point",
      "coordinates": [
        -74.006,
        40.7128
      ]
    },
    "created": 1757965624.467929,
    "expired": 9223372036854775807,
    "tenant_e4e302475120_attr": "e4e302475120"
  },
  {
    "_key": "e4e302475120_location12",
    "name": "NetWork Industries - London Office",
    "streetAddress": "456 Oxford St, London",
    "geoLocation": {
      "type": "Point",
      "coordinates": [
        -0.1278,
        51.5074
      ]
    },
    "created": 1757965624.467931,
    "expired": 9223372036854775807,
    "tenant_e4e302475120_attr": "e4e302475120"
  },
  {
    "_key": "e4e302475120_location13",
    "name": "NetWork Industries - Tokyo HQ",
    "streetAddress": "789 Ginza, Tokyo",
    "geoLocation": {
      "type": "Point",
      "coordinates": [
        139.6917,
        35.6895
      ]
    },
    "created": 1757965624.467933,
    "expired": 9223372036854775807,
    "tenant_e4e302475120_attr": "e4e302475120"
  },
  {
    "_key": "e4e302475120_location14",
    "name": "NetWork Industries - Sydney Warehouse",
    "streetAddress": "101 George St, Sydney",
    "geoLocation": {
      "type": "Point",
      "coordinates": [
        151.2093,
        -33.8688
      ]
    },
    "created": 1757965624.467936,
    "expired": 9223372036854775807,
    "tenant_e4e302475120_attr": "e4e302475120"
  },
  {
    "_key": "e4e302475120_location15",
    "name": "NetWork Industries - Frankfurt Cloud Region",
    "streetAddress": "222 Mainzer Landstr, Frankfurt",
    "geoLocation": {
      "type": "Point",
      "coordinates": [
        8.6821,
        50.1109
      ]
    },
    "created": 1757965624.467938,
    "expired": 9223372036854775807,
    "tenant_e4e302475120_attr": "e4e302475120"
  }
]