[
  {
    "_key": "ff06e2cef1aa_location1",
    "name": "Acme Corp - New York Data Center",
    "streetAddress": "123 Broadway, New York, NY",
    "geoLocation": {
      "type": "Point",
      "coordinates": [
        -74.006,
        40.7128
      ]
    },
    "created": 1757901875.839642,
    "expired": 9223372036854775807,
    "tenant_ff06e2cef1aa_attr": "ff06e2cef1aa"
  },
  {
    "_key": "ff06e2cef1aa_location2",
    "name": "Acme Corp - London Office",
    "streetAddress": "456 Oxford St, London",
    "geoLocation": {
      "type": "Point",
      "coordinates": [
        -0.1278,
        51.5074
      ]
    },
    "created": 1757901875.839657,
    "expired": 9223372036854775807,
    "tenant_ff06e2cef1aa_attr": "ff06e2cef1aa"
  },
  {
    "_key": "ff06e2cef1aa_location3",
    "name": "Acme Corp - Tokyo HQ",
    "streetAddress": "789 Ginza, Tokyo",
    "geoLocation": {
      "type": "Point",
      "coordinates": [
        139.6917,
        35.6895
      ]
    },
    "created": 1757901875.83966,
    "expired": 9223372036854775807,
    "tenant_ff06e2cef1aa_attr": "ff06e2cef1aa"
  },
  {
    "_key": "ff06e2cef1aa_location4",
    "name": "Acme Corp - Sydney Warehouse",
    "streetAddress": "101 George St, Sydney",
    "geoLocation": {
      "type": "Point",
      "coordinates": [
        151.2093,
        -33.8688
      ]
    },
    "created": 1757901875.839663,
    "expired": 9223372036854775807,
    "tenant_ff06e2cef1aa_attr": "ff06e2cef1aa"
  },
  {
    "_key": "ff06e2cef1aa_location5",
    "name": "Acme Corp - Frankfurt Cloud Region",
    "streetAddress": "222 Mainzer Landstr, Frankfurt",
    "geoLocation": {
      "type": "Point",
      "coordinates": [
        8.6821,
        50.1109
      ]
    },
    "created": 1757901875.839666,
    "expired": 9223372036854775807,
    "tenant_ff06e2cef1aa_attr": "ff06e2cef1aa"
  }
]