[
  {
    "_key": "52c0fbe8bce4_location1",
    "name": "Global Enterprises - New York Data Center",
    "streetAddress": "123 Broadway, New York, NY",
    "geoLocation": {
      "type": "Point",
      "coordinates": [
        -74.006,
        40.7128
      ]
    },
    "created": 1757728330.079648,
    "expired": 9223372036854775807,
    "tenant_52c0fbe8bce4_attr": "52c0fbe8bce4"
  },
  {
    "_key": "52c0fbe8bce4_location2",
    "name": "Global Enterprises - London Office",
    "streetAddress": "456 Oxford St, London",
    "geoLocation": {
      "type": "Point",
      "coordinates": [
        -0.1278,
        51.5074
      ]
    },
    "created": 1757728330.079654,
    "expired": 9223372036854775807,
    "tenant_52c0fbe8bce4_attr": "52c0fbe8bce4"
  },
  {
    "_key": "52c0fbe8bce4_location3",
    "name": "Global Enterprises - Tokyo HQ",
    "streetAddress": "789 Ginza, Tokyo",
    "geoLocation": {
      "type": "Point",
      "coordinates": [
        139.6917,
        35.6895
      ]
    },
    "created": 1757728330.079656,
    "expired": 9223372036854775807,
    "tenant_52c0fbe8bce4_attr": "52c0fbe8bce4"
  },
  {
    "_key": "52c0fbe8bce4_location4",
    "name": "Global Enterprises - Sydney Warehouse",
    "streetAddress": "101 George St, Sydney",
    "geoLocation": {
      "type": "Point",
      "coordinates": [
        151.2093,
        -33.8688
      ]
    },
    "created": 1757728330.079658,
    "expired": 9223372036854775807,
    "tenant_52c0fbe8bce4_attr": "52c0fbe8bce4"
  },
  {
    "_key": "52c0fbe8bce4_location5",
    "name": "Global Enterprises - Frankfurt Cloud Region",
    "streetAddress": "222 Mainzer Landstr, Frankfurt",
    "geoLocation": {
      "type": "Point",
      "coordinates": [
        8.6821,
        50.1109
      ]
    },
    "created": 1757728330.07966,
    "expired": 9223372036854775807,
    "tenant_52c0fbe8bce4_attr": "52c0fbe8bce4"
  },
  {
    "_key": "52c0fbe8bce4_location6",
    "name": "Global Enterprises - Singapore Hub",
    "streetAddress": "Marina Bay, Singapore",
    "geoLocation": {
      "type": "Point",
      "coordinates": [
        103.8764,
        1.2966
      ]
    },
    "created": 1757728330.079662,
    "expired": 9223372036854775807,
    "tenant_52c0fbe8bce4_attr": "52c0fbe8bce4"
  },
  {
    "_key": "52c0fbe8bce4_location7",
    "name": "Global Enterprises - Toronto Branch",
    "streetAddress": "Bay St, Toronto",
    "geoLocation": {
      "type": "Point",
      "coordinates": [
        -79.3832,
        43.6532
      ]
    },
    "created": 1757728330.079664,
    "expired": 9223372036854775807,
    "tenant_52c0fbe8bce4_attr": "52c0fbe8bce4"
  },
  {
    "_key": "52c0fbe8bce4_location8",
    "name": "Global Enterprises - Mumbai Center",
    "streetAddress": "Nariman Point, Mumbai",
    "geoLocation": {
      "type": "Point",
      "coordinates": [
        72.8347,
        18.922
      ]
    },
    "created": 1757728330.079666,
    "expired": 9223372036854775807,
    "tenant_52c0fbe8bce4_attr": "52c0fbe8bce4"
  },
  {
    "_key": "52c0fbe8bce4_location9",
    "name": "Global Enterprises - S\u00e3o Paulo Office",
    "streetAddress": "Av. Paulista, S\u00e3o Paulo",
    "geoLocation": {
      "type": "Point",
      "coordinates": [
        -46.6333,
        -23.5505
      ]
    },
    "created": 1757728330.079667,
    "expired": 9223372036854775807,
    "tenant_52c0fbe8bce4_attr": "52c0fbe8bce4"
  },
  {
    "_key": "52c0fbe8bce4_location10",
    "name": "Global Enterprises - Cape Town Hub",
    "streetAddress": "V&A Waterfront, Cape Town",
    "geoLocation": {
      "type": "Point",
      "coordinates": [
        18.4167,
        -33.9025
      ]
    },
    "created": 1757728330.079669,
    "expired": 9223372036854775807,
    "tenant_52c0fbe8bce4_attr": "52c0fbe8bce4"
  }
]