[
  {
    "_key": "4587202f5e81_location1",
    "name": "Enterprise Solutions - New York Data Center",
    "streetAddress": "123 Broadway, New York, NY",
    "geoLocation": {
      "type": "Point",
      "coordinates": [
        -74.006,
        40.7128
      ]
    },
    "created": 1757902237.120975,
    "expired": 9223372036854775807,
    "tenant_4587202f5e81_attr": "4587202f5e81"
  },
  {
    "_key": "4587202f5e81_location2",
    "name": "Enterprise Solutions - London Office",
    "streetAddress": "456 Oxford St, London",
    "geoLocation": {
      "type": "Point",
      "coordinates": [
        -0.1278,
        51.5074
      ]
    },
    "created": 1757902237.12098,
    "expired": 9223372036854775807,
    "tenant_4587202f5e81_attr": "4587202f5e81"
  },
  {
    "_key": "4587202f5e81_location3",
    "name": "Enterprise Solutions - Tokyo HQ",
    "streetAddress": "789 Ginza, Tokyo",
    "geoLocation": {
      "type": "Point",
      "coordinates": [
        139.6917,
        35.6895
      ]
    },
    "created": 1757902237.120983,
    "expired": 9223372036854775807,
    "tenant_4587202f5e81_attr": "4587202f5e81"
  },
  {
    "_key": "4587202f5e81_location4",
    "name": "Enterprise Solutions - Sydney Warehouse",
    "streetAddress": "101 George St, Sydney",
    "geoLocation": {
      "type": "Point",
      "coordinates": [
        151.2093,
        -33.8688
      ]
    },
    "created": 1757902237.120985,
    "expired": 9223372036854775807,
    "tenant_4587202f5e81_attr": "4587202f5e81"
  },
  {
    "_key": "4587202f5e81_location5",
    "name": "Enterprise Solutions - Frankfurt Cloud Region",
    "streetAddress": "222 Mainzer Landstr, Frankfurt",
    "geoLocation": {
      "type": "Point",
      "coordinates": [
        8.6821,
        50.1109
      ]
    },
    "created": 1757902237.120986,
    "expired": 9223372036854775807,
    "tenant_4587202f5e81_attr": "4587202f5e81"
  }
]