[
  {
    "_key": "41cd677709e6_location1",
    "name": "Global Retail Chain - New York Data Center",
    "streetAddress": "123 Broadway, New York, NY",
    "geoLocation": {
      "type": "Point",
      "coordinates": [
        -74.006,
        40.7128
      ]
    },
    "created": 1757903278.618969,
    "expired": 9223372036854775807,
    "tenant_41cd677709e6_attr": "41cd677709e6"
  },
  {
    "_key": "41cd677709e6_location2",
    "name": "Global Retail Chain - London Office",
    "streetAddress": "456 Oxford St, London",
    "geoLocation": {
      "type": "Point",
      "coordinates": [
        -0.1278,
        51.5074
      ]
    },
    "created": 1757903278.618978,
    "expired": 9223372036854775807,
    "tenant_41cd677709e6_attr": "41cd677709e6"
  },
  {
    "_key": "41cd677709e6_location3",
    "name": "Global Retail Chain - Tokyo HQ",
    "streetAddress": "789 Ginza, Tokyo",
    "geoLocation": {
      "type": "Point",
      "coordinates": [
        139.6917,
        35.6895
      ]
    },
    "created": 1757903278.618982,
    "expired": 9223372036854775807,
    "tenant_41cd677709e6_attr": "41cd677709e6"
  },
  {
    "_key": "41cd677709e6_location4",
    "name": "Global Retail Chain - Sydney Warehouse",
    "streetAddress": "101 George St, Sydney",
    "geoLocation": {
      "type": "Point",
      "coordinates": [
        151.2093,
        -33.8688
      ]
    },
    "created": 1757903278.618984,
    "expired": 9223372036854775807,
    "tenant_41cd677709e6_attr": "41cd677709e6"
  },
  {
    "_key": "41cd677709e6_location5",
    "name": "Global Retail Chain - Frankfurt Cloud Region",
    "streetAddress": "222 Mainzer Landstr, Frankfurt",
    "geoLocation": {
      "type": "Point",
      "coordinates": [
        8.6821,
        50.1109
      ]
    },
    "created": 1757903278.618986,
    "expired": 9223372036854775807,
    "tenant_41cd677709e6_attr": "41cd677709e6"
  },
  {
    "_key": "41cd677709e6_location6",
    "name": "Global Retail Chain - Singapore Hub",
    "streetAddress": "Marina Bay, Singapore",
    "geoLocation": {
      "type": "Point",
      "coordinates": [
        103.8764,
        1.2966
      ]
    },
    "created": 1757903278.618988,
    "expired": 9223372036854775807,
    "tenant_41cd677709e6_attr": "41cd677709e6"
  },
  {
    "_key": "41cd677709e6_location7",
    "name": "Global Retail Chain - Toronto Branch",
    "streetAddress": "Bay St, Toronto",
    "geoLocation": {
      "type": "Point",
      "coordinates": [
        -79.3832,
        43.6532
      ]
    },
    "created": 1757903278.61899,
    "expired": 9223372036854775807,
    "tenant_41cd677709e6_attr": "41cd677709e6"
  },
  {
    "_key": "41cd677709e6_location8",
    "name": "Global Retail Chain - Mumbai Center",
    "streetAddress": "Nariman Point, Mumbai",
    "geoLocation": {
      "type": "Point",
      "coordinates": [
        72.8347,
        18.922
      ]
    },
    "created": 1757903278.618992,
    "expired": 9223372036854775807,
    "tenant_41cd677709e6_attr": "41cd677709e6"
  },
  {
    "_key": "41cd677709e6_location9",
    "name": "Global Retail Chain - S\u00e3o Paulo Office",
    "streetAddress": "Av. Paulista, S\u00e3o Paulo",
    "geoLocation": {
      "type": "Point",
      "coordinates": [
        -46.6333,
        -23.5505
      ]
    },
    "created": 1757903278.618996,
    "expired": 9223372036854775807,
    "tenant_41cd677709e6_attr": "41cd677709e6"
  },
  {
    "_key": "41cd677709e6_location10",
    "name": "Global Retail Chain - Cape Town Hub",
    "streetAddress": "V&A Waterfront, Cape Town",
    "geoLocation": {
      "type": "Point",
      "coordinates": [
        18.4167,
        -33.9025
      ]
    },
    "created": 1757903278.618998,
    "expired": 9223372036854775807,
    "tenant_41cd677709e6_attr": "41cd677709e6"
  }
]