[
  {
    "_key": "4e1c86403a84_location1",
    "locationName": "Acme Corp - New York Data Center",
    "streetAddress": "123 Broadway, New York, NY",
    "geoLocation": {
      "type": "Point",
      "coordinates": [
        -74.006,
        40.7128
      ]
    },
    "created": 1757721539.107732,
    "expired": 9223372036854775807,
    "tenant_4e1c86403a84_attr": "4e1c86403a84"
  },
  {
    "_key": "4e1c86403a84_location2",
    "locationName": "Acme Corp - London Office",
    "streetAddress": "456 Oxford St, London",
    "geoLocation": {
      "type": "Point",
      "coordinates": [
        -0.1278,
        51.5074
      ]
    },
    "created": 1757721539.107742,
    "expired": 9223372036854775807,
    "tenant_4e1c86403a84_attr": "4e1c86403a84"
  },
  {
    "_key": "4e1c86403a84_location3",
    "locationName": "Acme Corp - Tokyo HQ",
    "streetAddress": "789 Ginza, Tokyo",
    "geoLocation": {
      "type": "Point",
      "coordinates": [
        139.6917,
        35.6895
      ]
    },
    "created": 1757721539.107745,
    "expired": 9223372036854775807,
    "tenant_4e1c86403a84_attr": "4e1c86403a84"
  },
  {
    "_key": "4e1c86403a84_location4",
    "locationName": "Acme Corp - Sydney Warehouse",
    "streetAddress": "101 George St, Sydney",
    "geoLocation": {
      "type": "Point",
      "coordinates": [
        151.2093,
        -33.8688
      ]
    },
    "created": 1757721539.107747,
    "expired": 9223372036854775807,
    "tenant_4e1c86403a84_attr": "4e1c86403a84"
  },
  {
    "_key": "4e1c86403a84_location5",
    "locationName": "Acme Corp - Frankfurt Cloud Region",
    "streetAddress": "222 Mainzer Landstr, Frankfurt",
    "geoLocation": {
      "type": "Point",
      "coordinates": [
        8.6821,
        50.1109
      ]
    },
    "created": 1757721539.107749,
    "expired": 9223372036854775807,
    "tenant_4e1c86403a84_attr": "4e1c86403a84"
  }
]