[
  {
    "_key": "c819d606bf58_location1",
    "name": "TechStart Inc - New York Data Center",
    "streetAddress": "123 Broadway, New York, NY",
    "geoLocation": {
      "type": "Point",
      "coordinates": [
        -74.006,
        40.7128
      ]
    },
    "created": 1757903758.587217,
    "expired": 9223372036854775807,
    "tenant_c819d606bf58_attr": "c819d606bf58"
  },
  {
    "_key": "c819d606bf58_location2",
    "name": "TechStart Inc - London Office",
    "streetAddress": "456 Oxford St, London",
    "geoLocation": {
      "type": "Point",
      "coordinates": [
        -0.1278,
        51.5074
      ]
    },
    "created": 1757903758.587224,
    "expired": 9223372036854775807,
    "tenant_c819d606bf58_attr": "c819d606bf58"
  },
  {
    "_key": "c819d606bf58_location3",
    "name": "TechStart Inc - Tokyo HQ",
    "streetAddress": "789 Ginza, Tokyo",
    "geoLocation": {
      "type": "Point",
      "coordinates": [
        139.6917,
        35.6895
      ]
    },
    "created": 1757903758.587227,
    "expired": 9223372036854775807,
    "tenant_c819d606bf58_attr": "c819d606bf58"
  },
  {
    "_key": "c819d606bf58_location4",
    "name": "TechStart Inc - Sydney Warehouse",
    "streetAddress": "101 George St, Sydney",
    "geoLocation": {
      "type": "Point",
      "coordinates": [
        151.2093,
        -33.8688
      ]
    },
    "created": 1757903758.587229,
    "expired": 9223372036854775807,
    "tenant_c819d606bf58_attr": "c819d606bf58"
  },
  {
    "_key": "c819d606bf58_location5",
    "name": "TechStart Inc - Frankfurt Cloud Region",
    "streetAddress": "222 Mainzer Landstr, Frankfurt",
    "geoLocation": {
      "type": "Point",
      "coordinates": [
        8.6821,
        50.1109
      ]
    },
    "created": 1757903758.587231,
    "expired": 9223372036854775807,
    "tenant_c819d606bf58_attr": "c819d606bf58"
  },
  {
    "_key": "c819d606bf58_location6",
    "name": "TechStart Inc - Singapore Hub",
    "streetAddress": "Marina Bay, Singapore",
    "geoLocation": {
      "type": "Point",
      "coordinates": [
        103.8764,
        1.2966
      ]
    },
    "created": 1757903758.587233,
    "expired": 9223372036854775807,
    "tenant_c819d606bf58_attr": "c819d606bf58"
  },
  {
    "_key": "c819d606bf58_location7",
    "name": "TechStart Inc - Toronto Branch",
    "streetAddress": "Bay St, Toronto",
    "geoLocation": {
      "type": "Point",
      "coordinates": [
        -79.3832,
        43.6532
      ]
    },
    "created": 1757903758.587235,
    "expired": 9223372036854775807,
    "tenant_c819d606bf58_attr": "c819d606bf58"
  },
  {
    "_key": "c819d606bf58_location8",
    "name": "TechStart Inc - Mumbai Center",
    "streetAddress": "Nariman Point, Mumbai",
    "geoLocation": {
      "type": "Point",
      "coordinates": [
        72.8347,
        18.922
      ]
    },
    "created": 1757903758.587237,
    "expired": 9223372036854775807,
    "tenant_c819d606bf58_attr": "c819d606bf58"
  },
  {
    "_key": "c819d606bf58_location9",
    "name": "TechStart Inc - S\u00e3o Paulo Office",
    "streetAddress": "Av. Paulista, S\u00e3o Paulo",
    "geoLocation": {
      "type": "Point",
      "coordinates": [
        -46.6333,
        -23.5505
      ]
    },
    "created": 1757903758.587239,
    "expired": 9223372036854775807,
    "tenant_c819d606bf58_attr": "c819d606bf58"
  },
  {
    "_key": "c819d606bf58_location10",
    "name": "TechStart Inc - Cape Town Hub",
    "streetAddress": "V&A Waterfront, Cape Town",
    "geoLocation": {
      "type": "Point",
      "coordinates": [
        18.4167,
        -33.9025
      ]
    },
    "created": 1757903758.587241,
    "expired": 9223372036854775807,
    "tenant_c819d606bf58_attr": "c819d606bf58"
  },
  {
    "_key": "c819d606bf58_location11",
    "name": "TechStart Inc - New York Data Center",
    "streetAddress": "123 Broadway, New York, NY",
    "geoLocation": {
      "type": "Point",
      "coordinates": [
        -74.006,
        40.7128
      ]
    },
    "created": 1757903758.587243,
    "expired": 9223372036854775807,
    "tenant_c819d606bf58_attr": "c819d606bf58"
  },
  {
    "_key": "c819d606bf58_location12",
    "name": "TechStart Inc - London Office",
    "streetAddress": "456 Oxford St, London",
    "geoLocation": {
      "type": "Point",
      "coordinates": [
        -0.1278,
        51.5074
      ]
    },
    "created": 1757903758.587245,
    "expired": 9223372036854775807,
    "tenant_c819d606bf58_attr": "c819d606bf58"
  },
  {
    "_key": "c819d606bf58_location13",
    "name": "TechStart Inc - Tokyo HQ",
    "streetAddress": "789 Ginza, Tokyo",
    "geoLocation": {
      "type": "Point",
      "coordinates": [
        139.6917,
        35.6895
      ]
    },
    "created": 1757903758.587246,
    "expired": 9223372036854775807,
    "tenant_c819d606bf58_attr": "c819d606bf58"
  },
  {
    "_key": "c819d606bf58_location14",
    "name": "TechStart Inc - Sydney Warehouse",
    "streetAddress": "101 George St, Sydney",
    "geoLocation": {
      "type": "Point",
      "coordinates": [
        151.2093,
        -33.8688
      ]
    },
    "created": 1757903758.587248,
    "expired": 9223372036854775807,
    "tenant_c819d606bf58_attr": "c819d606bf58"
  },
  {
    "_key": "c819d606bf58_location15",
    "name": "TechStart Inc - Frankfurt Cloud Region",
    "streetAddress": "222 Mainzer Landstr, Frankfurt",
    "geoLocation": {
      "type": "Point",
      "coordinates": [
        8.6821,
        50.1109
      ]
    },
    "created": 1757903758.58725,
    "expired": 9223372036854775807,
    "tenant_c819d606bf58_attr": "c819d606bf58"
  }
]